{
  "type": "FeatureCollection",
  "name": "stations",
  "crs": {
    "type": "name",
    "properties": {
      "name": "urn:ogc:def:crs:OGC:1.3:CRS84"
    }
  },
  "features": [
    {
      "type": "Feature",
      "properties": {
        "STAID": 11249,
        "STANAME": "nan",
        "CN": "FR  ",
        "HGHT": 89.0
      },
      "geometry": {
        "type": "Point",
        "coordinates": [
          2.3841666666666668,
          48.71666666666667
        ]
      }
    },
    {
      "type": "Feature",
      "properties": {
        "STAID": 10001,
        "STANAME": "Paris Montsouris",
        "CN": "FR  ",
        "HGHT": 75.0
      },
      "geometry": {
        "type": "Point",
        "coordinates": [
          2.3364,
          48.8222
        ]
      }
    },
    {
      "type": "Feature",
      "properties": {
        "STAID": 10002,
        "STANAME": "Paris Orly",
        "CN": "FR  ",
        "HGHT": 89.0
      },
      "geometry": {
        "type": "Point",
        "coordinates": [
          2.3794,
          48.7233
        ]
      }
    },
    {
      "type": "Feature",
      "properties": {
        "STAID": 10003,
        "STANAME": "Paris Le Bourget",
        "CN": "FR  ",
        "HGHT": 66.0
      },
      "geometry": {
        "type": "Point",
        "coordinates": [
          2.4414,
          48.9694
        ]
      }
    },
    {
      "type": "Feature",
      "properties": {
        "STAID": 10004,
        "STANAME": "Paris Charles de Gaulle",
        "CN": "FR  ",
        "HGHT": 109.0
      },
      "geometry": {
        "type": "Point",
        "coordinates": [
          2.5479,
          49.0097
        ]
      }
    },
    {
      "type": "Feature",
      "properties": {
        "STAID": 10005,
        "STANAME": "Paris V\u00e9lizy",
        "CN": "FR  ",
        "HGHT": 167.0
      },
      "geometry": {
        "type": "Point",
        "coordinates": [
          2.1931,
          48.7811
        ]
      }
    }
  ]
}